[
    {
        "id": "6891",
        "name": "Putnam County Airport",
        "city": "Greencastle",
        "country": "United States",
        "iata": "4I7",
        "icao": "\\N",
        "latitude": "39.6335556",
        "longitude": "-86.8138056",
        "altitude": "842",
        "timezone": "-5",
        "dst": "U",
        "tz": "America/New_York"
    },
    {
        "id": "6890",
        "name": "Dowagiac Municipal Airport",
        "city": "Dowagiac",
        "country": "United States",
        "iata": "C91",
        "icao": "\\N",
        "latitude": "41.9929342",
        "longitude": "-86.1280125",
        "altitude": "748",
        "timezone": "-5",
        "dst": "U",
        "tz": "America/New_York"
    },
    {
        "id": "6889",
        "name": "Cambridge Municipal Airport",
        "city": "Cambridge",
        "country": "United States",
        "iata": "CDI",
        "icao": "\\N",
        "latitude": "39.9750278",
        "longitude": "-81.5775833",
        "altitude": "799",
        "timezone": "-5",
        "dst": "U",
        "tz": "America/New_York"
    },
    {
        "id": "6885",
        "name": "Door County Cherryland Airport",
        "city": "Sturgeon Bay",
        "country": "United States",
        "iata": "SUE",
        "icao": "\\N",
        "latitude": "44.8436667",
        "longitude": "-87.4215556",
        "altitude": "725",
        "timezone": "-6",
        "dst": "U",
        "tz": "America/Chicago"
    },
    {
        "id": "6884",
        "name": "Shoestring Aviation Airfield",
        "city": "Stewartstown",
        "country": "United States",
        "iata": "0P2",
        "icao": "\\N",
        "latitude": "39.7948244",
        "longitude": "-76.6471914",
        "altitude": "1000",
        "timezone": "-5",
        "dst": "U",
        "tz": "America/New_York"
    },
    {
        "id": "6883",
        "name": "Eastern Oregon Regional Airport",
        "city": "Pendleton",
        "country": "United States",
        "iata": "PDT",
        "icao": "KPDT",
        "latitude": "45.695",
        "longitude": "-118.841389",
        "altitude": "1497",
        "timezone": "-8",
        "dst": "A",
        "tz": "America/Los_Angeles"
    },
    {
        "id": "6882",
        "name": "Tyonek Airport",
        "city": "Tyonek",
        "country": "United States",
        "iata": "TYE",
        "icao": "\\N",
        "latitude": "61.076667",
        "longitude": "-151.138056",
        "altitude": "110",
        "timezone": "-9",
        "dst": "A",
        "tz": "America/Anchorage"
    },
    {
        "id": "6881",
        "name": "Riverton Regional",
        "city": "Riverton WY",
        "country": "United States",
        "iata": "RIW",
        "icao": "KRIW",
        "latitude": "43.064167",
        "longitude": "-108.459722",
        "altitude": "5525",
        "timezone": "-7",
        "dst": "A",
        "tz": "America/Denver"
    },
    {
        "id": "6880",
        "name": "Montrose Regional Airport",
        "city": "Montrose CO",
        "country": "United States",
        "iata": "MTJ",
        "icao": "KMTJ",
        "latitude": "38.509794",
        "longitude": "-107.894242",
        "altitude": "5759",
        "timezone": "-7",
        "dst": "A",
        "tz": "America/Denver"
    },
    {
        "id": "6879",
        "name": "Clow International Airport",
        "city": "Bolingbrook",
        "country": "United States",
        "iata": "1CS",
        "icao": "\\N",
        "latitude": "41.6959744",
        "longitude": "-88.1292306",
        "altitude": "670",
        "timezone": "-6",
        "dst": "U",
        "tz": "America/Chicago"
    },
    {
        "id": "6878",
        "name": "Kenosha Regional Airport",
        "city": "Kenosha",
        "country": "United States",
        "iata": "ENW",
        "icao": "\\N",
        "latitude": "42.5956944",
        "longitude": "-87.9278056",
        "altitude": "742",
        "timezone": "-6",
        "dst": "A",
        "tz": "America/Chicago"
    },
    {
        "id": "6877",
        "name": "North Las Vegas Airport",
        "city": "Las Vegas",
        "country": "United States",
        "iata": "VGT",
        "icao": "\\N",
        "latitude": "36.2106944",
        "longitude": "-115.1944444",
        "altitude": "2205",
        "timezone": "-8",
        "dst": "U",
        "tz": "America/Los_Angeles"
    },
    {
        "id": "6876",
        "name": "Brown County Airport",
        "city": "Georgetown",
        "country": "United States",
        "iata": "",
        "icao": "KGEO",
        "latitude": "38.8819456",
        "longitude": "-83.8827367",
        "altitude": "958",
        "timezone": "-5",
        "dst": "U",
        "tz": "America/New_York"
    },
    {
        "id": "6875",
        "name": "Grand Geneva Resort Airport",
        "city": "Lake Geneva",
        "country": "United States",
        "iata": "C02",
        "icao": "\\N",
        "latitude": "42.6149167",
        "longitude": "-88.3895833",
        "altitude": "835",
        "timezone": "-6",
        "dst": "U",
        "tz": "America/Chicago"
    },
    {
        "id": "6874",
        "name": "De Kalb Taylor Municipal Airport",
        "city": "De Kalb",
        "country": "United States",
        "iata": "DKB",
        "icao": "\\N",
        "latitude": "41.9338342",
        "longitude": "-88.7056864",
        "altitude": "914",
        "timezone": "-6",
        "dst": "U",
        "tz": "America/Chicago"
    },
    {
        "id": "6873",
        "name": "Purude University Airport",
        "city": "Lafayette",
        "country": "United States",
        "iata": "LAF",
        "icao": "\\N",
        "latitude": "40.4123056",
        "longitude": "-86.9368889",
        "altitude": "606",
        "timezone": "-5",
        "dst": "A",
        "tz": "America/New_York"
    },
    {
        "id": "6872",
        "name": "Miami University Airport",
        "city": "Oxford",
        "country": "United States",
        "iata": "OXD",
        "icao": "\\N",
        "latitude": "39.5022607",
        "longitude": "-84.7843814",
        "altitude": "1040",
        "timezone": "-5",
        "dst": "U",
        "tz": "America/New_York"
    },
    {
        "id": "6871",
        "name": "Delaware County Airport",
        "city": "Muncie",
        "country": "United States",
        "iata": "MIE",
        "icao": "\\N",
        "latitude": "40.2424722",
        "longitude": "-85.39575",
        "altitude": "937",
        "timezone": "-5",
        "dst": "U",
        "tz": "America/New_York"
    },
    {
        "id": "6864",
        "name": "Point Roberts Airpark",
        "city": "Point Roberts",
        "country": "United States",
        "iata": "1RL",
        "icao": "K1RL",
        "latitude": "48.9797222",
        "longitude": "-123.0788889",
        "altitude": "10",
        "timezone": "-8",
        "dst": "A",
        "tz": "America/Los_Angeles"
    },
    {
        "id": "6861",
        "name": "Macomb Municipal Airport",
        "city": "Macomb",
        "country": "United States",
        "iata": "MQB",
        "icao": "\\N",
        "latitude": "40.5200833",
        "longitude": "-90.6523889",
        "altitude": "707",
        "timezone": "-6",
        "dst": "U",
        "tz": "America/Chicago"
    },
    {
        "id": "6853",
        "name": "Wausau Downtown Airport",
        "city": "Wausau",
        "country": "United States",
        "iata": "AUW",
        "icao": "\\N",
        "latitude": "44.9262845",
        "longitude": "-89.6270018",
        "altitude": "1201",
        "timezone": "-6",
        "dst": "U",
        "tz": "America/Chicago"
    },
    {
        "id": "6852",
        "name": "Portage Municipal Airport",
        "city": "Portage",
        "country": "United States",
        "iata": "C47",
        "icao": "\\N",
        "latitude": "43.5603136",
        "longitude": "-89.4828607",
        "altitude": "825",
        "timezone": "-6",
        "dst": "U",
        "tz": "America/Chicago"
    },
    {
        "id": "6851",
        "name": "Gogebic Iron County Airport",
        "city": "Ironwood",
        "country": "United States",
        "iata": "IWD",
        "icao": "\\N",
        "latitude": "46.5274747",
        "longitude": "-90.1313967",
        "altitude": "1230",
        "timezone": "-6",
        "dst": "U",
        "tz": "America/Chicago"
    },
    {
        "id": "6850",
        "name": "Mackinac Island Airport",
        "city": "Mackinac Island",
        "country": "United States",
        "iata": "MCD",
        "icao": "\\N",
        "latitude": "45.8649344",
        "longitude": "-84.637344",
        "altitude": "740",
        "timezone": "-5",
        "dst": "U",
        "tz": "America/New_York"
    },
    {
        "id": "6849",
        "name": "Grand Marais Cook County Airport",
        "city": "Grand Marais",
        "country": "United States",
        "iata": "GRM",
        "icao": "KCKC",
        "latitude": "47.8383333",
        "longitude": "-90.3829444",
        "altitude": "1799",
        "timezone": "-6",
        "dst": "U",
        "tz": "America/Chicago"
    },
    {
        "id": "6848",
        "name": "Porter County Municipal Airport",
        "city": "Valparaiso",
        "country": "United States",
        "iata": "NPZ",
        "icao": "\\N",
        "latitude": "41.4539722",
        "longitude": "-87.0070833",
        "altitude": "770",
        "timezone": "-6",
        "dst": "A",
        "tz": "America/Chicago"
    },
    {
        "id": "6847",
        "name": "Silverton",
        "city": "Silverton",
        "country": "United States",
        "iata": "",
        "icao": "\\N",
        "latitude": "37.812545",
        "longitude": "-107.662994",
        "altitude": "9308",
        "timezone": "-7",
        "dst": "U",
        "tz": "America/Denver"
    },
    {
        "id": "6846",
        "name": "McCarthy Airport",
        "city": "McCarthy",
        "country": "United States",
        "iata": "MXY",
        "icao": "\\N",
        "latitude": "61.4370608",
        "longitude": "-142.90307372",
        "altitude": "1531",
        "timezone": "-9",
        "dst": "U",
        "tz": "America/Anchorage"
    },
    {
        "id": "6845",
        "name": "Seward Airport",
        "city": "Seward",
        "country": "United States",
        "iata": "SWD",
        "icao": "\\N",
        "latitude": "60.1269383",
        "longitude": "-149.4188122",
        "altitude": "22",
        "timezone": "-9",
        "dst": "U",
        "tz": "America/Anchorage"
    },
    {
        "id": "6844",
        "name": "Michigan City Municipal Airport",
        "city": "Michigan City",
        "country": "United States",
        "iata": "MGC",
        "icao": "KMGC",
        "latitude": "41.7033",
        "longitude": "-86.8211",
        "altitude": "500",
        "timezone": "-6",
        "dst": "A",
        "tz": "America/Chicago"
    },
    {
        "id": "6842",
        "name": "East Glacier Park Amtrak Station",
        "city": "East Glacier",
        "country": "United States",
        "iata": "",
        "icao": "\\N",
        "latitude": "48.443965",
        "longitude": "-113.218556",
        "altitude": "5171",
        "timezone": "-7",
        "dst": "A",
        "tz": "America/Denver"
    },
    {
        "id": "6839",
        "name": "Allakaket Airport",
        "city": "Allakaket",
        "country": "United States",
        "iata": "AET",
        "icao": "PFAL",
        "latitude": "66.5519",
        "longitude": "-152.6222",
        "altitude": "441",
        "timezone": "-9",
        "dst": "A",
        "tz": "America/Anchorage"
    },
    {
        "id": "6803",
        "name": "Yakutat",
        "city": "Yakutat",
        "country": "United States",
        "iata": "YAK",
        "icao": "PAYA",
        "latitude": "59.3012",
        "longitude": "-139.3937",
        "altitude": "33",
        "timezone": "-9",
        "dst": "A",
        "tz": "\\N"
    },
    {
        "id": "6838",
        "name": "Sawyer International Airport",
        "city": "Marquette",
        "country": "United States",
        "iata": "MQT",
        "icao": "KMQT",
        "latitude": "46.353611",
        "longitude": "-87.395278",
        "altitude": "1221",
        "timezone": "-5",
        "dst": "A",
        "tz": "America/New_York"
    },
    {
        "id": "6837",
        "name": "Ford Airport",
        "city": "Iron Mountain",
        "country": "United States",
        "iata": "IMT",
        "icao": "KIMT",
        "latitude": "45.8183611",
        "longitude": "-88.1145556",
        "altitude": "1182",
        "timezone": "-6",
        "dst": "A",
        "tz": "America/Chicago"
    },
    {
        "id": "6800",
        "name": "Delta County Airport",
        "city": "Escanaba",
        "country": "United States",
        "iata": "ESC",
        "icao": "KESC",
        "latitude": "45.722778",
        "longitude": "-87.093611",
        "altitude": "609",
        "timezone": "-5",
        "dst": "A",
        "tz": "America/New_York"
    },
    {
        "id": "6825",
        "name": "Williamson Country Regional Airport",
        "city": "Marion",
        "country": "United States",
        "iata": "MWA",
        "icao": "KMWA",
        "latitude": "37.7549569",
        "longitude": "-89.0110936",
        "altitude": "472",
        "timezone": "-6",
        "dst": "A",
        "tz": "America/Chicago"
    },
    {
        "id": "3411",
        "name": "Barter Island Lrrs",
        "city": "Barter Island",
        "country": "United States",
        "iata": "BTI",
        "icao": "PABA",
        "latitude": "70.133989",
        "longitude": "-143.581867",
        "altitude": "2",
        "timezone": "-9",
        "dst": "A",
        "tz": "America/Anchorage"
    },
    {
        "id": "3412",
        "name": "Wainwright As",
        "city": "Fort Wainwright",
        "country": "United States",
        "iata": "K03",
        "icao": "PAWT",
        "latitude": "70.613378",
        "longitude": "-159.86035",
        "altitude": "35",
        "timezone": "-9",
        "dst": "A",
        "tz": "America/Anchorage"
    },
    {
        "id": "3413",
        "name": "Cape Lisburne Lrrs",
        "city": "Cape Lisburne",
        "country": "United States",
        "iata": "LUR",
        "icao": "PALU",
        "latitude": "68.875133",
        "longitude": "-166.110022",
        "altitude": "12",
        "timezone": "-9",
        "dst": "A",
        "tz": "America/Anchorage"
    },
    {
        "id": "3414",
        "name": "Point Lay Lrrs",
        "city": "Point Lay",
        "country": "United States",
        "iata": "PIZ",
        "icao": "PPIZ",
        "latitude": "69.732875",
        "longitude": "-163.005342",
        "altitude": "25",
        "timezone": "-9",
        "dst": "A",
        "tz": "America/Anchorage"
    },
    {
        "id": "3415",
        "name": "Hilo Intl",
        "city": "Hilo",
        "country": "United States",
        "iata": "ITO",
        "icao": "PHTO",
        "latitude": "19.721375",
        "longitude": "-155.048469",
        "altitude": "38",
        "timezone": "-10",
        "dst": "N",
        "tz": "Pacific/Honolulu"
    },
    {
        "id": "3416",
        "name": "Executive",
        "city": "Orlando",
        "country": "United States",
        "iata": "ORL",
        "icao": "KORL",
        "latitude": "28.545464",
        "longitude": "-81.332936",
        "altitude": "113",
        "timezone": "-5",
        "dst": "A",
        "tz": "America/New_York"
    },
    {
        "id": "3417",
        "name": "Bettles",
        "city": "Bettles",
        "country": "United States",
        "iata": "BTT",
        "icao": "PABT",
        "latitude": "66.913944",
        "longitude": "-151.529056",
        "altitude": "644",
        "timezone": "-9",
        "dst": "A",
        "tz": "America/Anchorage"
    },
    {
        "id": "3418",
        "name": "Clear",
        "city": "Clear Mews",
        "country": "United States",
        "iata": "Z84",
        "icao": "PACL",
        "latitude": "64.301203",
        "longitude": "-149.120144",
        "altitude": "552",
        "timezone": "-9",
        "dst": "A",
        "tz": "America/Anchorage"
    },
    {
        "id": "3419",
        "name": "Indian Mountain Lrrs",
        "city": "Indian Mountains",
        "country": "United States",
        "iata": "UTO",
        "icao": "PAIM",
        "latitude": "65.992794",
        "longitude": "-153.704289",
        "altitude": "1220",
        "timezone": "-9",
        "dst": "A",
        "tz": "America/Anchorage"
    },
    {
        "id": "3420",
        "name": "Fort Yukon",
        "city": "Fort Yukon",
        "country": "United States",
        "iata": "FYU",
        "icao": "PFYU",
        "latitude": "66.571492",
        "longitude": "-145.250417",
        "altitude": "433",
        "timezone": "-9",
        "dst": "A",
        "tz": "America/Anchorage"
    },
    {
        "id": "3421",
        "name": "Sparrevohn Lrrs",
        "city": "Sparrevohn",
        "country": "United States",
        "iata": "SVW",
        "icao": "PASV",
        "latitude": "61.097369",
        "longitude": "-155.574228",
        "altitude": "1583",
        "timezone": "-9",
        "dst": "A",
        "tz": "America/Anchorage"
    },
    {
        "id": "3422",
        "name": "Bryant Ahp",
        "city": "Fort Richardson",
        "country": "United States",
        "iata": "FRN",
        "icao": "PAFR",
        "latitude": "61.266381",
        "longitude": "-149.653119",
        "altitude": "378",
        "timezone": "-9",
        "dst": "A",
        "tz": "America/Anchorage"
    },
    {
        "id": "3423",
        "name": "Tatalina Lrrs",
        "city": "Tatalina",
        "country": "United States",
        "iata": "TLJ",
        "icao": "PATL",
        "latitude": "62.894369",
        "longitude": "-155.976525",
        "altitude": "964",
        "timezone": "-9",
        "dst": "A",
        "tz": "America/Anchorage"
    },
    {
        "id": "3424",
        "name": "Cape Romanzof Lrrs",
        "city": "Cape Romanzof",
        "country": "United States",
        "iata": "CZF",
        "icao": "PACZ",
        "latitude": "61.780297",
        "longitude": "-166.038747",
        "altitude": "457",
        "timezone": "-9",
        "dst": "A",
        "tz": "America/Anchorage"
    },
    {
        "id": "3425",
        "name": "Laurence G Hanscom Fld",
        "city": "Bedford",
        "country": "United States",
        "iata": "BED",
        "icao": "KBED",
        "latitude": "42.469953",
        "longitude": "-71.289031",
        "altitude": "133",
        "timezone": "-5",
        "dst": "A",
        "tz": "America/New_York"
    },
    {
        "id": "3426",
        "name": "St Paul Island",
        "city": "St. Paul Island",
        "country": "United States",
        "iata": "SNP",
        "icao": "PASN",
        "latitude": "57.167333",
        "longitude": "-170.220444",
        "altitude": "63",
        "timezone": "-9",
        "dst": "A",
        "tz": "America/Anchorage"
    },
    {
        "id": "3427",
        "name": "Cape Newenham Lrrs",
        "city": "Cape Newenham",
        "country": "United States",
        "iata": "EHM",
        "icao": "PAEH",
        "latitude": "58.646428",
        "longitude": "-162.062778",
        "altitude": "541",
        "timezone": "-9",
        "dst": "A",
        "tz": "America/Anchorage"
    },
    {
        "id": "3428",
        "name": "St George",
        "city": "Point Barrow",
        "country": "United States",
        "iata": "PBV",
        "icao": "PAPB",
        "latitude": "56.578344",
        "longitude": "-169.661611",
        "altitude": "125",
        "timezone": "-9",
        "dst": "A",
        "tz": "America/Anchorage"
    },
    {
        "id": "3429",
        "name": "Iliamna",
        "city": "Iliamna",
        "country": "United States",
        "iata": "ILI",
        "icao": "PAIL",
        "latitude": "59.754356",
        "longitude": "-154.910961",
        "altitude": "186",
        "timezone": "-9",
        "dst": "A",
        "tz": "America/Anchorage"
    },
    {
        "id": "3430",
        "name": "Platinum",
        "city": "Port Moller",
        "country": "United States",
        "iata": "PTU",
        "icao": "PAPM",
        "latitude": "59.011356",
        "longitude": "-161.819664",
        "altitude": "15",
        "timezone": "-9",
        "dst": "A",
        "tz": "America/Anchorage"
    },
    {
        "id": "3431",
        "name": "Big Mountain Afs",
        "city": "Big Mountain",
        "country": "United States",
        "iata": "BMX",
        "icao": "PABM",
        "latitude": "59.361247",
        "longitude": "-155.258822",
        "altitude": "663",
        "timezone": "-9",
        "dst": "A",
        "tz": "America/Anchorage"
    },
    {
        "id": "3432",
        "name": "Oscoda Wurtsmith",
        "city": "Oscoda",
        "country": "United States",
        "iata": "OSC",
        "icao": "KOSC",
        "latitude": "44.451558",
        "longitude": "-83.394053",
        "altitude": "634",
        "timezone": "-5",
        "dst": "A",
        "tz": "America/New_York"
    },
    {
        "id": "3433",
        "name": "Marina Muni",
        "city": "Fort Ord",
        "country": "United States",
        "iata": "OAR",
        "icao": "KOAR",
        "latitude": "36.681878",
        "longitude": "-121.762347",
        "altitude": "134",
        "timezone": "-8",
        "dst": "A",
        "tz": "America/Los_Angeles"
    },
    {
        "id": "3434",
        "name": "Sacramento Mather",
        "city": "Sacramento",
        "country": "United States",
        "iata": "MHR",
        "icao": "KMHR",
        "latitude": "38.553897",
        "longitude": "-121.297592",
        "altitude": "96",
        "timezone": "-8",
        "dst": "A",
        "tz": "America/Los_Angeles"
    },
    {
        "id": "3435",
        "name": "Bicycle Lake Aaf",
        "city": "Fort Irwin",
        "country": "United States",
        "iata": "BYS",
        "icao": "KBYS",
        "latitude": "35.280531",
        "longitude": "-116.630031",
        "altitude": "2350",
        "timezone": "-8",
        "dst": "A",
        "tz": "America/Los_Angeles"
    },
    {
        "id": "3436",
        "name": "Twentynine Palms Eaf",
        "city": "Twenty Nine Palms",
        "country": "United States",
        "iata": "NXP",
        "icao": "KNXP",
        "latitude": "34.296161",
        "longitude": "-116.162203",
        "altitude": "2051",
        "timezone": "-8",
        "dst": "A",
        "tz": "America/Los_Angeles"
    },
    {
        "id": "3437",
        "name": "Fort Smith Rgnl",
        "city": "Fort Smith",
        "country": "United States",
        "iata": "FSM",
        "icao": "KFSM",
        "latitude": "35.336583",
        "longitude": "-94.367444",
        "altitude": "469",
        "timezone": "-6",
        "dst": "A",
        "tz": "America/Chicago"
    },
    {
        "id": "3438",
        "name": "Merrill Fld",
        "city": "Anchorage",
        "country": "United States",
        "iata": "MRI",
        "icao": "PAMR",
        "latitude": "61.213544",
        "longitude": "-149.844447",
        "altitude": "137",
        "timezone": "-9",
        "dst": "A",
        "tz": "America/Anchorage"
    },
    {
        "id": "3439",
        "name": "Grants Milan Muni",
        "city": "Grants",
        "country": "United States",
        "iata": "GNT",
        "icao": "KGNT",
        "latitude": "35.167286",
        "longitude": "-107.901989",
        "altitude": "6537",
        "timezone": "-7",
        "dst": "A",
        "tz": "America/Denver"
    },
    {
        "id": "3440",
        "name": "Ponca City Rgnl",
        "city": "Ponca City",
        "country": "United States",
        "iata": "PNC",
        "icao": "KPNC",
        "latitude": "36.731958",
        "longitude": "-97.099781",
        "altitude": "1007",
        "timezone": "-6",
        "dst": "A",
        "tz": "America/Chicago"
    },
    {
        "id": "3441",
        "name": "Hunter Aaf",
        "city": "Hunter Aaf",
        "country": "United States",
        "iata": "SVN",
        "icao": "KSVN",
        "latitude": "32.01",
        "longitude": "-81.145683",
        "altitude": "42",
        "timezone": "-5",
        "dst": "A",
        "tz": "America/New_York"
    },
    {
        "id": "3442",
        "name": "Grand Forks Intl",
        "city": "Grand Forks",
        "country": "United States",
        "iata": "GFK",
        "icao": "KGFK",
        "latitude": "47.949256",
        "longitude": "-97.176111",
        "altitude": "845",
        "timezone": "-6",
        "dst": "A",
        "tz": "America/Chicago"
    },
    {
        "id": "3443",
        "name": "Grider Fld",
        "city": "Pine Bluff",
        "country": "United States",
        "iata": "PBF",
        "icao": "KPBF",
        "latitude": "34.173142",
        "longitude": "-91.935597",
        "altitude": "206",
        "timezone": "-6",
        "dst": "A",
        "tz": "America/Chicago"
    },
    {
        "id": "3444",
        "name": "Whiting Fld Nas North",
        "city": "Milton",
        "country": "United States",
        "iata": "NSE",
        "icao": "KNSE",
        "latitude": "30.724167",
        "longitude": "-87.021944",
        "altitude": "199",
        "timezone": "-6",
        "dst": "A",
        "tz": "America/Chicago"
    },
    {
        "id": "3445",
        "name": "Hana",
        "city": "Hana",
        "country": "United States",
        "iata": "HNM",
        "icao": "PHHN",
        "latitude": "20.795636",
        "longitude": "-156.014439",
        "altitude": "78",
        "timezone": "-10",
        "dst": "A",
        "tz": "Pacific/Honolulu"
    },
    {
        "id": "3446",
        "name": "Ernest A Love Fld",
        "city": "Prescott",
        "country": "United States",
        "iata": "PRC",
        "icao": "KPRC",
        "latitude": "34.654472",
        "longitude": "-112.419583",
        "altitude": "5045",
        "timezone": "-7",
        "dst": "A",
        "tz": "America/Phoenix"
    },
    {
        "id": "3447",
        "name": "Trenton Mercer",
        "city": "Trenton",
        "country": "United States",
        "iata": "TTN",
        "icao": "KTTN",
        "latitude": "40.276692",
        "longitude": "-74.813469",
        "altitude": "213",
        "timezone": "-5",
        "dst": "A",
        "tz": "America/New_York"
    },
    {
        "id": "3448",
        "name": "General Edward Lawrence Logan Intl",
        "city": "Boston",
        "country": "United States",
        "iata": "BOS",
        "icao": "KBOS",
        "latitude": "42.364347",
        "longitude": "-71.005181",
        "altitude": "19",
        "timezone": "-5",
        "dst": "A",
        "tz": "America/New_York"
    },
    {
        "id": "3449",
        "name": "Travis Afb",
        "city": "Fairfield",
        "country": "United States",
        "iata": "SUU",
        "icao": "KSUU",
        "latitude": "38.262692",
        "longitude": "-121.927464",
        "altitude": "62",
        "timezone": "-8",
        "dst": "A",
        "tz": "America/Los_Angeles"
    },
    {
        "id": "3450",
        "name": "Griffiss Afld",
        "city": "Rome",
        "country": "United States",
        "iata": "RME",
        "icao": "KRME",
        "latitude": "43.2338",
        "longitude": "-75.407033",
        "altitude": "504",
        "timezone": "-5",
        "dst": "A",
        "tz": "America/New_York"
    },
    {
        "id": "3451",
        "name": "Wendover",
        "city": "Wendover",
        "country": "United States",
        "iata": "ENV",
        "icao": "KENV",
        "latitude": "40.718694",
        "longitude": "-114.030889",
        "altitude": "4237",
        "timezone": "-7",
        "dst": "A",
        "tz": "America/Denver"
    },
    {
        "id": "3452",
        "name": "Mobile Downtown",
        "city": "Mobile",
        "country": "United States",
        "iata": "BFM",
        "icao": "KBFM",
        "latitude": "30.626783",
        "longitude": "-88.068092",
        "altitude": "26",
        "timezone": "-6",
        "dst": "A",
        "tz": "America/Chicago"
    },
    {
        "id": "3453",
        "name": "Metropolitan Oakland Intl",
        "city": "Oakland",
        "country": "United States",
        "iata": "OAK",
        "icao": "KOAK",
        "latitude": "37.721278",
        "longitude": "-122.220722",
        "altitude": "9",
        "timezone": "-8",
        "dst": "A",
        "tz": "America/Los_Angeles"
    },
    {
        "id": "3454",
        "name": "Eppley Afld",
        "city": "Omaha",
        "country": "United States",
        "iata": "OMA",
        "icao": "KOMA",
        "latitude": "41.303167",
        "longitude": "-95.894069",
        "altitude": "984",
        "timezone": "-6",
        "dst": "A",
        "tz": "America/Chicago"
    },
    {
        "id": "3455",
        "name": "Port Angeles Cgas",
        "city": "Port Angeles",
        "country": "United States",
        "iata": "NOW",
        "icao": "KNOW",
        "latitude": "48.141481",
        "longitude": "-123.414075",
        "altitude": "13",
        "timezone": "-8",
        "dst": "A",
        "tz": "America/Los_Angeles"
    },
    {
        "id": "3456",
        "name": "Kahului",
        "city": "Kahului",
        "country": "United States",
        "iata": "OGG",
        "icao": "PHOG",
        "latitude": "20.89865",
        "longitude": "-156.430458",
        "altitude": "54",
        "timezone": "-10",
        "dst": "N",
        "tz": "Pacific/Honolulu"
    },
    {
        "id": "3457",
        "name": "Wichita Mid Continent",
        "city": "Wichita",
        "country": "United States",
        "iata": "ICT",
        "icao": "KICT",
        "latitude": "37.649944",
        "longitude": "-97.433056",
        "altitude": "1333",
        "timezone": "-6",
        "dst": "A",
        "tz": "America/Chicago"
    },
    {
        "id": "3458",
        "name": "Kansas City Intl",
        "city": "Kansas City",
        "country": "United States",
        "iata": "MCI",
        "icao": "KMCI",
        "latitude": "39.297606",
        "longitude": "-94.713905",
        "altitude": "1026",
        "timezone": "-6",
        "dst": "A",
        "tz": "America/Chicago"
    },
    {
        "id": "3459",
        "name": "Dane Co Rgnl Truax Fld",
        "city": "Madison",
        "country": "United States",
        "iata": "MSN",
        "icao": "KMSN",
        "latitude": "43.139858",
        "longitude": "-89.337514",
        "altitude": "887",
        "timezone": "-6",
        "dst": "A",
        "tz": "America/Chicago"
    },
    {
        "id": "3460",
        "name": "Dillingham",
        "city": "Dillingham",
        "country": "United States",
        "iata": "DLG",
        "icao": "PADL",
        "latitude": "59.044667",
        "longitude": "-158.5055",
        "altitude": "74",
        "timezone": "-9",
        "dst": "A",
        "tz": "America/Anchorage"
    },
    {
        "id": "3461",
        "name": "Boone Co",
        "city": "Harrison",
        "country": "United States",
        "iata": "HRO",
        "icao": "KHRO",
        "latitude": "36.261519",
        "longitude": "-93.154728",
        "altitude": "1365",
        "timezone": "-6",
        "dst": "A",
        "tz": "America/Chicago"
    },
    {
        "id": "3462",
        "name": "Phoenix Sky Harbor Intl",
        "city": "Phoenix",
        "country": "United States",
        "iata": "PHX",
        "icao": "KPHX",
        "latitude": "33.434278",
        "longitude": "-112.011583",
        "altitude": "1135",
        "timezone": "-7",
        "dst": "N",
        "tz": "America/Phoenix"
    },
    {
        "id": "3463",
        "name": "Bangor Intl",
        "city": "Bangor",
        "country": "United States",
        "iata": "BGR",
        "icao": "KBGR",
        "latitude": "44.807444",
        "longitude": "-68.828139",
        "altitude": "192",
        "timezone": "-5",
        "dst": "A",
        "tz": "America/New_York"
    },
    {
        "id": "3464",
        "name": "Fort Lauderdale Executive",
        "city": "Fort Lauderdale",
        "country": "United States",
        "iata": "FXE",
        "icao": "KFXE",
        "latitude": "26.197281",
        "longitude": "-80.170706",
        "altitude": "13",
        "timezone": "-5",
        "dst": "A",
        "tz": "America/New_York"
    },
    {
        "id": "3465",
        "name": "East Texas Rgnl",
        "city": "Longview",
        "country": "United States",
        "iata": "GGG",
        "icao": "KGGG",
        "latitude": "32.384014",
        "longitude": "-94.711486",
        "altitude": "365",
        "timezone": "-6",
        "dst": "A",
        "tz": "America/Chicago"
    },
    {
        "id": "3466",
        "name": "Anderson Rgnl",
        "city": "Andersen",
        "country": "United States",
        "iata": "AND",
        "icao": "KAND",
        "latitude": "34.494583",
        "longitude": "-82.709389",
        "altitude": "782",
        "timezone": "-5",
        "dst": "A",
        "tz": "America/New_York"
    },
    {
        "id": "3467",
        "name": "Spokane Intl",
        "city": "Spokane",
        "country": "United States",
        "iata": "GEG",
        "icao": "KGEG",
        "latitude": "47.619861",
        "longitude": "-117.533833",
        "altitude": "2376",
        "timezone": "-8",
        "dst": "A",
        "tz": "America/Los_Angeles"
    },
    {
        "id": "3468",
        "name": "North Perry",
        "city": "Hollywood",
        "country": "United States",
        "iata": "HWO",
        "icao": "KHWO",
        "latitude": "26.001222",
        "longitude": "-80.240722",
        "altitude": "8",
        "timezone": "-5",
        "dst": "A",
        "tz": "America/New_York"
    },
    {
        "id": "3469",
        "name": "San Francisco Intl",
        "city": "San Francisco",
        "country": "United States",
        "iata": "SFO",
        "icao": "KSFO",
        "latitude": "37.618972",
        "longitude": "-122.374889",
        "altitude": "13",
        "timezone": "-8",
        "dst": "A",
        "tz": "America/Los_Angeles"
    },
    {
        "id": "3470",
        "name": "Cut Bank Muni",
        "city": "Cutbank",
        "country": "United States",
        "iata": "CTB",
        "icao": "KCTB",
        "latitude": "48.608353",
        "longitude": "-112.376144",
        "altitude": "3854",
        "timezone": "-7",
        "dst": "A",
        "tz": "America/Denver"
    },
    {
        "id": "3471",
        "name": "Acadiana Rgnl",
        "city": "Louisiana",
        "country": "United States",
        "iata": "ARA",
        "icao": "KARA",
        "latitude": "30.037758",
        "longitude": "-91.883896",
        "altitude": "24",
        "timezone": "-6",
        "dst": "A",
        "tz": "America/Chicago"
    },
    {
        "id": "3472",
        "name": "Gainesville Rgnl",
        "city": "Gainesville",
        "country": "United States",
        "iata": "GNV",
        "icao": "KGNV",
        "latitude": "29.690056",
        "longitude": "-82.271778",
        "altitude": "152",
        "timezone": "-5",
        "dst": "A",
        "tz": "America/New_York"
    },
    {
        "id": "3473",
        "name": "Memphis Intl",
        "city": "Memphis",
        "country": "United States",
        "iata": "MEM",
        "icao": "KMEM",
        "latitude": "35.042417",
        "longitude": "-89.976667",
        "altitude": "341",
        "timezone": "-6",
        "dst": "A",
        "tz": "America/Chicago"
    },
    {
        "id": "3474",
        "name": "Bisbee Douglas Intl",
        "city": "Douglas",
        "country": "United States",
        "iata": "DUG",
        "icao": "KDUG",
        "latitude": "31.469028",
        "longitude": "-109.603667",
        "altitude": "4154",
        "timezone": "-7",
        "dst": "A",
        "tz": "America/Phoenix"
    },
    {
        "id": "3475",
        "name": "Allen Aaf",
        "city": "Delta Junction",
        "country": "United States",
        "iata": "BIG",
        "icao": "PABI",
        "latitude": "63.994547",
        "longitude": "-145.721642",
        "altitude": "1291",
        "timezone": "-9",
        "dst": "A",
        "tz": "America/Anchorage"
    },
    {
        "id": "3476",
        "name": "Tstc Waco",
        "city": "Waco",
        "country": "United States",
        "iata": "CNW",
        "icao": "KCNW",
        "latitude": "31.637831",
        "longitude": "-97.074139",
        "altitude": "470",
        "timezone": "-6",
        "dst": "A",
        "tz": "America/Chicago"
    },
    {
        "id": "3477",
        "name": "Annette Island",
        "city": "Annette Island",
        "country": "United States",
        "iata": "ANN",
        "icao": "PANT",
        "latitude": "55.042436",
        "longitude": "-131.572233",
        "altitude": "119",
        "timezone": "-9",
        "dst": "A",
        "tz": "America/Anchorage"
    },
    {
        "id": "3478",
        "name": "Caribou Muni",
        "city": "Caribou",
        "country": "United States",
        "iata": "CAR",
        "icao": "KCAR",
        "latitude": "46.8715",
        "longitude": "-68.017917",
        "altitude": "626",
        "timezone": "-5",
        "dst": "A",
        "tz": "America/New_York"
    },
    {
        "id": "3479",
        "name": "Little Rock Afb",
        "city": "Jacksonville",
        "country": "United States",
        "iata": "LRF",
        "icao": "KLRF",
        "latitude": "34.916944",
        "longitude": "-92.149722",
        "altitude": "311",
        "timezone": "-6",
        "dst": "A",
        "tz": "America/Chicago"
    },
    {
        "id": "3480",
        "name": "Redstone Aaf",
        "city": "Redstone",
        "country": "United States",
        "iata": "HUA",
        "icao": "KHUA",
        "latitude": "34.678653",
        "longitude": "-86.684781",
        "altitude": "685",
        "timezone": "-6",
        "dst": "A",
        "tz": "America/Chicago"
    },
    {
        "id": "3481",
        "name": "Pope Field",
        "city": "Fort Bragg",
        "country": "United States",
        "iata": "POB",
        "icao": "KPOB",
        "latitude": "35.170883",
        "longitude": "-79.014472",
        "altitude": "217",
        "timezone": "-5",
        "dst": "A",
        "tz": "America/New_York"
    },
    {
        "id": "3482",
        "name": "Dalhart Muni",
        "city": "Dalhart",
        "country": "United States",
        "iata": "DHT",
        "icao": "KDHT",
        "latitude": "36.022586",
        "longitude": "-102.547278",
        "altitude": "3991",
        "timezone": "-6",
        "dst": "A",
        "tz": "America/Chicago"
    },
    {
        "id": "3483",
        "name": "Laughlin Afb",
        "city": "Del Rio",
        "country": "United States",
        "iata": "DLF",
        "icao": "KDLF",
        "latitude": "29.359486",
        "longitude": "-100.777975",
        "altitude": "1082",
        "timezone": "-6",
        "dst": "A",
        "tz": "America/Chicago"
    },
    {
        "id": "3484",
        "name": "Los Angeles Intl",
        "city": "Los Angeles",
        "country": "United States",
        "iata": "LAX",
        "icao": "KLAX",
        "latitude": "33.942536",
        "longitude": "-118.408075",
        "altitude": "126",
        "timezone": "-8",
        "dst": "A",
        "tz": "America/Los_Angeles"
    },
    {
        "id": "3485",
        "name": "Anniston Metro",
        "city": "Anniston",
        "country": "United States",
        "iata": "ANB",
        "icao": "KANB",
        "latitude": "33.588167",
        "longitude": "-85.858111",
        "altitude": "612",
        "timezone": "-6",
        "dst": "A",
        "tz": "America/Chicago"
    },
    {
        "id": "3486",
        "name": "Cleveland Hopkins Intl",
        "city": "Cleveland",
        "country": "United States",
        "iata": "CLE",
        "icao": "KCLE",
        "latitude": "41.411689",
        "longitude": "-81.849794",
        "altitude": "791",
        "timezone": "-5",
        "dst": "A",
        "tz": "America/New_York"
    },
    {
        "id": "3487",
        "name": "Dover Afb",
        "city": "Dover",
        "country": "United States",
        "iata": "DOV",
        "icao": "KDOV",
        "latitude": "39.129539",
        "longitude": "-75.465958",
        "altitude": "28",
        "timezone": "-5",
        "dst": "A",
        "tz": "America/New_York"
    },
    {
        "id": "3488",
        "name": "Cincinnati Northern Kentucky Intl",
        "city": "Cincinnati",
        "country": "United States",
        "iata": "CVG",
        "icao": "KCVG",
        "latitude": "39.048836",
        "longitude": "-84.667822",
        "altitude": "896",
        "timezone": "-5",
        "dst": "A",
        "tz": "America/New_York"
    },
    {
        "id": "3489",
        "name": "Tipton",
        "city": "Fort Meade",
        "country": "United States",
        "iata": "FME",
        "icao": "KFME",
        "latitude": "39.085386",
        "longitude": "-76.759414",
        "altitude": "150",
        "timezone": "-5",
        "dst": "A",
        "tz": "America/New_York"
    },
    {
        "id": "3490",
        "name": "China Lake Naws",
        "city": "China",
        "country": "United States",
        "iata": "NID",
        "icao": "KNID",
        "latitude": "35.685422",
        "longitude": "-117.692039",
        "altitude": "2283",
        "timezone": "-8",
        "dst": "A",
        "tz": "America/Los_Angeles"
    },
    {
        "id": "3491",
        "name": "Huron Rgnl",
        "city": "Huron",
        "country": "United States",
        "iata": "HON",
        "icao": "KHON",
        "latitude": "44.3852",
        "longitude": "-98.228542",
        "altitude": "1289",
        "timezone": "-6",
        "dst": "A",
        "tz": "America/Chicago"
    },
    {
        "id": "3492",
        "name": "Juneau Intl",
        "city": "Juneau",
        "country": "United States",
        "iata": "JNU",
        "icao": "PAJN",
        "latitude": "58.354972",
        "longitude": "-134.576278",
        "altitude": "21",
        "timezone": "-9",
        "dst": "A",
        "tz": "America/Anchorage"
    },
    {
        "id": "3493",
        "name": "Lafayette Rgnl",
        "city": "Lafayette",
        "country": "United States",
        "iata": "LFT",
        "icao": "KLFT",
        "latitude": "30.205278",
        "longitude": "-91.987611",
        "altitude": "43",
        "timezone": "-6",
        "dst": "A",
        "tz": "America/Chicago"
    },
    {
        "id": "3494",
        "name": "Newark Liberty Intl",
        "city": "Newark",
        "country": "United States",
        "iata": "EWR",
        "icao": "KEWR",
        "latitude": "40.6925",
        "longitude": "-74.168667",
        "altitude": "18",
        "timezone": "-5",
        "dst": "A",
        "tz": "America/New_York"
    },
    {
        "id": "3495",
        "name": "Boise Air Terminal",
        "city": "Boise",
        "country": "United States",
        "iata": "BOI",
        "icao": "KBOI",
        "latitude": "43.564361",
        "longitude": "-116.222861",
        "altitude": "2871",
        "timezone": "-7",
        "dst": "A",
        "tz": "America/Denver"
    },
    {
        "id": "3496",
        "name": "Creech Afb",
        "city": "Indian Springs",
        "country": "United States",
        "iata": "INS",
        "icao": "KINS",
        "latitude": "36.587183",
        "longitude": "-115.673353",
        "altitude": "3133",
        "timezone": "-8",
        "dst": "A",
        "tz": "America/Los_Angeles"
    },
    {
        "id": "3497",
        "name": "Garden City Rgnl",
        "city": "Garden City",
        "country": "United States",
        "iata": "GCK",
        "icao": "KGCK",
        "latitude": "37.927528",
        "longitude": "-100.724417",
        "altitude": "2891",
        "timezone": "-6",
        "dst": "A",
        "tz": "America/Chicago"
    },
    {
        "id": "3498",
        "name": "Minot Intl",
        "city": "Minot",
        "country": "United States",
        "iata": "MOT",
        "icao": "KMOT",
        "latitude": "48.259378",
        "longitude": "-101.280333",
        "altitude": "1716",
        "timezone": "-6",
        "dst": "A",
        "tz": "America/Chicago"
    },
    {
        "id": "3499",
        "name": "Wheeler Aaf",
        "city": "Wahiawa",
        "country": "United States",
        "iata": "HHI",
        "icao": "PHHI",
        "latitude": "21.4835",
        "longitude": "-158.039667",
        "altitude": "837",
        "timezone": "-10",
        "dst": "A",
        "tz": "Pacific/Honolulu"
    },
    {
        "id": "3500",
        "name": "Maxwell Afb",
        "city": "Montgomery",
        "country": "United States",
        "iata": "MXF",
        "icao": "KMXF",
        "latitude": "32.382944",
        "longitude": "-86.365778",
        "altitude": "171",
        "timezone": "-6",
        "dst": "A",
        "tz": "America/Chicago"
    },
    {
        "id": "3501",
        "name": "Robinson Aaf",
        "city": "Robinson",
        "country": "United States",
        "iata": "RBM",
        "icao": "KRBM",
        "latitude": "34.850089",
        "longitude": "-92.300153",
        "altitude": "587",
        "timezone": "-6",
        "dst": "A",
        "tz": "America/Chicago"
    },
    {
        "id": "3502",
        "name": "Dallas Love Fld",
        "city": "Dallas",
        "country": "United States",
        "iata": "DAL",
        "icao": "KDAL",
        "latitude": "32.847111",
        "longitude": "-96.851778",
        "altitude": "487",
        "timezone": "-6",
        "dst": "A",
        "tz": "America/Chicago"
    },
    {
        "id": "3503",
        "name": "Butts Aaf",
        "city": "Fort Carson",
        "country": "United States",
        "iata": "FCS",
        "icao": "KFCS",
        "latitude": "38.678394",
        "longitude": "-104.756581",
        "altitude": "5838",
        "timezone": "-7",
        "dst": "A",
        "tz": "America/Denver"
    },
    {
        "id": "3504",
        "name": "Helena Rgnl",
        "city": "Helena",
        "country": "United States",
        "iata": "HLN",
        "icao": "KHLN",
        "latitude": "46.606806",
        "longitude": "-111.98275",
        "altitude": "3877",
        "timezone": "-7",
        "dst": "A",
        "tz": "America/Denver"
    },
    {
        "id": "3505",
        "name": "Miramar Mcas",
        "city": "Miramar",
        "country": "United States",
        "iata": "NKX",
        "icao": "KNKX",
        "latitude": "32.867694",
        "longitude": "-117.14175",
        "altitude": "478",
        "timezone": "-8",
        "dst": "A",
        "tz": "America/Los_Angeles"
    },
    {
        "id": "3506",
        "name": "Luke Afb",
        "city": "Phoenix",
        "country": "United States",
        "iata": "LUF",
        "icao": "KLUF",
        "latitude": "33.535",
        "longitude": "-112.38306",
        "altitude": "1085",
        "timezone": "-7",
        "dst": "A",
        "tz": "America/Phoenix"
    },
    {
        "id": "3507",
        "name": "Hurlburt Fld",
        "city": "Mary Esther",
        "country": "United States",
        "iata": "HRT",
        "icao": "KHRT",
        "latitude": "30.427803",
        "longitude": "-86.689278",
        "altitude": "38",
        "timezone": "-6",
        "dst": "A",
        "tz": "America/Chicago"
    },
    {
        "id": "3508",
        "name": "Jack Northrop Fld Hawthorne Muni",
        "city": "Hawthorne",
        "country": "United States",
        "iata": "HHR",
        "icao": "KHHR",
        "latitude": "33.922839",
        "longitude": "-118.335186",
        "altitude": "66",
        "timezone": "-8",
        "dst": "A",
        "tz": "America/Los_Angeles"
    },
    {
        "id": "3509",
        "name": "Houlton Intl",
        "city": "Houlton",
        "country": "United States",
        "iata": "HUL",
        "icao": "KHUL",
        "latitude": "46.123083",
        "longitude": "-67.792056",
        "altitude": "489",
        "timezone": "-5",
        "dst": "A",
        "tz": "America/New_York"
    },
    {
        "id": "3510",
        "name": "Vance Afb",
        "city": "Enid",
        "country": "United States",
        "iata": "END",
        "icao": "KEND",
        "latitude": "36.339167",
        "longitude": "-97.9165",
        "altitude": "1307",
        "timezone": "-6",
        "dst": "A",
        "tz": "America/Chicago"
    },
    {
        "id": "3511",
        "name": "Point Mugu Nas",
        "city": "Point Mugu",
        "country": "United States",
        "iata": "NTD",
        "icao": "KNTD",
        "latitude": "34.120285",
        "longitude": "-119.12094",
        "altitude": "13",
        "timezone": "-8",
        "dst": "A",
        "tz": "America/Los_Angeles"
    },
    {
        "id": "3512",
        "name": "Edwards Afb",
        "city": "Edwards Afb",
        "country": "United States",
        "iata": "EDW",
        "icao": "KEDW",
        "latitude": "34.905417",
        "longitude": "-117.883739",
        "altitude": "2302",
        "timezone": "-8",
        "dst": "A",
        "tz": "America/Los_Angeles"
    },
    {
        "id": "3513",
        "name": "Lake Charles Rgnl",
        "city": "Lake Charles",
        "country": "United States",
        "iata": "LCH",
        "icao": "KLCH",
        "latitude": "30.126112",
        "longitude": "-93.223335",
        "altitude": "15",
        "timezone": "-6",
        "dst": "A",
        "tz": "America/Chicago"
    },
    {
        "id": "3514",
        "name": "Kona Intl At Keahole",
        "city": "Kona",
        "country": "United States",
        "iata": "KOA",
        "icao": "PHKO",
        "latitude": "19.738767",
        "longitude": "-156.045631",
        "altitude": "47",
        "timezone": "-10",
        "dst": "N",
        "tz": "Pacific/Honolulu"
    },
    {
        "id": "3515",
        "name": "Myrtle Beach Intl",
        "city": "Myrtle Beach",
        "country": "United States",
        "iata": "MYR",
        "icao": "KMYR",
        "latitude": "33.67975",
        "longitude": "-78.928333",
        "altitude": "25",
        "timezone": "-5",
        "dst": "A",
        "tz": "America/New_York"
    },
    {
        "id": "3516",
        "name": "Lemoore Nas",
        "city": "Lemoore",
        "country": "United States",
        "iata": "NLC",
        "icao": "KNLC",
        "latitude": "36.333012",
        "longitude": "-119.95208",
        "altitude": "234",
        "timezone": "-8",
        "dst": "A",
        "tz": "America/Los_Angeles"
    },
    {
        "id": "3517",
        "name": "Nantucket Mem",
        "city": "Nantucket",
        "country": "United States",
        "iata": "ACK",
        "icao": "KACK",
        "latitude": "41.253053",
        "longitude": "-70.060181",
        "altitude": "48",
        "timezone": "-5",
        "dst": "A",
        "tz": "America/New_York"
    },
    {
        "id": "3518",
        "name": "Felker Aaf",
        "city": "Fort Eustis",
        "country": "United States",
        "iata": "FAF",
        "icao": "KFAF",
        "latitude": "37.1325",
        "longitude": "-76.608841",
        "altitude": "12",
        "timezone": "-5",
        "dst": "A",
        "tz": "America/New_York"
    },
    {
        "id": "3519",
        "name": "Campbell Aaf",
        "city": "Hopkinsville",
        "country": "United States",
        "iata": "HOP",
        "icao": "KHOP",
        "latitude": "36.668567",
        "longitude": "-87.496183",
        "altitude": "573",
        "timezone": "-6",
        "dst": "A",
        "tz": "America/Chicago"
    },
    {
        "id": "3520",
        "name": "Ronald Reagan Washington Natl",
        "city": "Washington",
        "country": "United States",
        "iata": "DCA",
        "icao": "KDCA",
        "latitude": "38.852083",
        "longitude": "-77.037722",
        "altitude": "15",
        "timezone": "-5",
        "dst": "A",
        "tz": "America/New_York"
    },
    {
        "id": "3521",
        "name": "Patuxent River Nas",
        "city": "Patuxent River",
        "country": "United States",
        "iata": "NHK",
        "icao": "KNHK",
        "latitude": "38.285981",
        "longitude": "-76.411781",
        "altitude": "39",
        "timezone": "-5",
        "dst": "A",
        "tz": "America/New_York"
    },
    {
        "id": "3522",
        "name": "Palacios Muni",
        "city": "Palacios",
        "country": "United States",
        "iata": "PSX",
        "icao": "KPSX",
        "latitude": "28.727508",
        "longitude": "-96.250958",
        "altitude": "14",
        "timezone": "-6",
        "dst": "A",
        "tz": "America/Chicago"
    },
    {
        "id": "3523",
        "name": "Arkansas Intl",
        "city": "Blytheville",
        "country": "United States",
        "iata": "BYH",
        "icao": "KBYH",
        "latitude": "35.964347",
        "longitude": "-89.943956",
        "altitude": "254",
        "timezone": "-6",
        "dst": "A",
        "tz": "America/Chicago"
    },
    {
        "id": "3524",
        "name": "Atlantic City Intl",
        "city": "Atlantic City",
        "country": "United States",
        "iata": "ACY",
        "icao": "KACY",
        "latitude": "39.457583",
        "longitude": "-74.577167",
        "altitude": "75",
        "timezone": "-5",
        "dst": "A",
        "tz": "America/New_York"
    },
    {
        "id": "3525",
        "name": "Tinker Afb",
        "city": "Oklahoma City",
        "country": "United States",
        "iata": "TIK",
        "icao": "KTIK",
        "latitude": "35.414739",
        "longitude": "-97.386633",
        "altitude": "1291",
        "timezone": "-6",
        "dst": "A",
        "tz": "America/Chicago"
    },
    {
        "id": "3526",
        "name": "Elizabeth City Cgas Rgnl",
        "city": "Elizabeth City",
        "country": "United States",
        "iata": "ECG",
        "icao": "KECG",
        "latitude": "36.260581",
        "longitude": "-76.174572",
        "altitude": "12",
        "timezone": "-5",
        "dst": "A",
        "tz": "America/New_York"
    },
    {
        "id": "3527",
        "name": "Pueblo Memorial",
        "city": "Pueblo",
        "country": "United States",
        "iata": "PUB",
        "icao": "KPUB",
        "latitude": "38.289085",
        "longitude": "-104.496572",
        "altitude": "4726",
        "timezone": "-7",
        "dst": "A",
        "tz": "America/Denver"
    },
    {
        "id": "3528",
        "name": "Northern Maine Rgnl At Presque Isle",
        "city": "Presque Isle",
        "country": "United States",
        "iata": "PQI",
        "icao": "KPQI",
        "latitude": "46.688958",
        "longitude": "-68.044797",
        "altitude": "534",
        "timezone": "-5",
        "dst": "A",
        "tz": "America/New_York"
    },
    {
        "id": "3529",
        "name": "Kirtland Air Force Base",
        "city": "Kirtland A.f.b.",
        "country": "United States",
        "iata": "IKR",
        "icao": "KIKR",
        "latitude": "35.040222",
        "longitude": "-106.609194",
        "altitude": "5355",
        "timezone": "-7",
        "dst": "A",
        "tz": "America/Denver"
    },
    {
        "id": "3530",
        "name": "Gray Aaf",
        "city": "Fort Lewis",
        "country": "United States",
        "iata": "GRF",
        "icao": "KGRF",
        "latitude": "47.079217",
        "longitude": "-122.580783",
        "altitude": "302",
        "timezone": "-8",
        "dst": "A",
        "tz": "America/Los_Angeles"
    },
    {
        "id": "3531",
        "name": "Kodiak",
        "city": "Kodiak",
        "country": "United States",
        "iata": "ADQ",
        "icao": "PADQ",
        "latitude": "57.749967",
        "longitude": "-152.493856",
        "altitude": "78",
        "timezone": "-9",
        "dst": "A",
        "tz": "America/Anchorage"
    },
    {
        "id": "3532",
        "name": "Upolu",
        "city": "Opolu",
        "country": "United States",
        "iata": "UPP",
        "icao": "PHUP",
        "latitude": "20.265256",
        "longitude": "-155.859989",
        "altitude": "96",
        "timezone": "-10",
        "dst": "A",
        "tz": "Pacific/Honolulu"
    },
    {
        "id": "3533",
        "name": "Fort Lauderdale Hollywood Intl",
        "city": "Fort Lauderdale",
        "country": "United States",
        "iata": "FLL",
        "icao": "KFLL",
        "latitude": "26.072583",
        "longitude": "-80.15275",
        "altitude": "9",
        "timezone": "-5",
        "dst": "A",
        "tz": "America/New_York"
    },
    {
        "id": "3534",
        "name": "Davis Fld",
        "city": "Muskogee",
        "country": "United States",
        "iata": "MKO",
        "icao": "KMKO",
        "latitude": "35.656489",
        "longitude": "-95.366656",
        "altitude": "612",
        "timezone": "-6",
        "dst": "A",
        "tz": "America/Chicago"
    },
    {
        "id": "3535",
        "name": "Falls Intl",
        "city": "International Falls",
        "country": "United States",
        "iata": "INL",
        "icao": "KINL",
        "latitude": "48.566186",
        "longitude": "-93.403067",
        "altitude": "1185",
        "timezone": "-6",
        "dst": "A",
        "tz": "America/Chicago"
    },
    {
        "id": "3536",
        "name": "Salt Lake City Intl",
        "city": "Salt Lake City",
        "country": "United States",
        "iata": "SLC",
        "icao": "KSLC",
        "latitude": "40.788389",
        "longitude": "-111.977772",
        "altitude": "4227",
        "timezone": "-7",
        "dst": "A",
        "tz": "America/Denver"
    },
    {
        "id": "3537",
        "name": "Childress Muni",
        "city": "Childress",
        "country": "United States",
        "iata": "CDS",
        "icao": "KCDS",
        "latitude": "34.433781",
        "longitude": "-100.287992",
        "altitude": "1954",
        "timezone": "-6",
        "dst": "A",
        "tz": "America/Chicago"
    },
    {
        "id": "3538",
        "name": "Keesler Afb",
        "city": "Biloxi",
        "country": "United States",
        "iata": "BIX",
        "icao": "KBIX",
        "latitude": "30.410425",
        "longitude": "-88.924433",
        "altitude": "33",
        "timezone": "-6",
        "dst": "A",
        "tz": "America/Chicago"
    },
    {
        "id": "3539",
        "name": "Lawson Aaf",
        "city": "Fort Benning",
        "country": "United States",
        "iata": "LSF",
        "icao": "KLSF",
        "latitude": "32.337322",
        "longitude": "-84.991283",
        "altitude": "232",
        "timezone": "-5",
        "dst": "A",
        "tz": "America/New_York"
    },
    {
        "id": "3540",
        "name": "Kingsville Nas",
        "city": "Kingsville",
        "country": "United States",
        "iata": "NQI",
        "icao": "KNQI",
        "latitude": "27.507223",
        "longitude": "-97.809723",
        "altitude": "50",
        "timezone": "-6",
        "dst": "A",
        "tz": "America/Chicago"
    },
    {
        "id": "3541",
        "name": "Marshall Aaf",
        "city": "Fort Riley",
        "country": "United States",
        "iata": "FRI",
        "icao": "KFRI",
        "latitude": "39.055275",
        "longitude": "-96.764453",
        "altitude": "1063",
        "timezone": "-6",
        "dst": "A",
        "tz": "America/Chicago"
    },
    {
        "id": "3542",
        "name": "Harrisburg Intl",
        "city": "Harrisburg",
        "country": "United States",
        "iata": "MDT",
        "icao": "KMDT",
        "latitude": "40.193494",
        "longitude": "-76.763403",
        "altitude": "310",
        "timezone": "-5",
        "dst": "A",
        "tz": "America/New_York"
    },
    {
        "id": "3543",
        "name": "Lincoln",
        "city": "Lincoln",
        "country": "United States",
        "iata": "LNK",
        "icao": "KLNK",
        "latitude": "40.850971",
        "longitude": "-96.75925",
        "altitude": "1219",
        "timezone": "-6",
        "dst": "A",
        "tz": "America/Chicago"
    },
    {
        "id": "3544",
        "name": "Capital City",
        "city": "Lansing",
        "country": "United States",
        "iata": "LAN",
        "icao": "KLAN",
        "latitude": "42.7787",
        "longitude": "-84.587357",
        "altitude": "861",
        "timezone": "-5",
        "dst": "A",
        "tz": "America/New_York"
    },
    {
        "id": "3545",
        "name": "Waimea Kohala",
        "city": "Kamuela",
        "country": "United States",
        "iata": "MUE",
        "icao": "PHMU",
        "latitude": "20.001328",
        "longitude": "-155.668108",
        "altitude": "2671",
        "timezone": "-10",
        "dst": "A",
        "tz": "Pacific/Honolulu"
    },
    {
        "id": "3546",
        "name": "Massena Intl Richards Fld",
        "city": "Massena",
        "country": "United States",
        "iata": "MSS",
        "icao": "KMSS",
        "latitude": "44.935833",
        "longitude": "-74.845547",
        "altitude": "215",
        "timezone": "-5",
        "dst": "A",
        "tz": "America/New_York"
    },
    {
        "id": "3547",
        "name": "Hickory Rgnl",
        "city": "Hickory",
        "country": "United States",
        "iata": "HKY",
        "icao": "KHKY",
        "latitude": "35.741147",
        "longitude": "-81.38955",
        "altitude": "1189",
        "timezone": "-5",
        "dst": "A",
        "tz": "America/New_York"
    },
    {
        "id": "3548",
        "name": "Albert Whitted",
        "city": "St. Petersburg",
        "country": "United States",
        "iata": "SPG",
        "icao": "KSPG",
        "latitude": "27.765111",
        "longitude": "-82.626972",
        "altitude": "7",
        "timezone": "-5",
        "dst": "A",
        "tz": "America/New_York"
    },
    {
        "id": "3549",
        "name": "Page Fld",
        "city": "Fort Myers",
        "country": "United States",
        "iata": "FMY",
        "icao": "KFMY",
        "latitude": "26.586611",
        "longitude": "-81.86325",
        "altitude": "17",
        "timezone": "-5",
        "dst": "A",
        "tz": "America/New_York"
    },
    {
        "id": "3550",
        "name": "George Bush Intercontinental",
        "city": "Houston",
        "country": "United States",
        "iata": "IAH",
        "icao": "KIAH",
        "latitude": "29.984433",
        "longitude": "-95.341442",
        "altitude": "97",
        "timezone": "-6",
        "dst": "A",
        "tz": "America/Chicago"
    },
    {
        "id": "3551",
        "name": "Millinocket Muni",
        "city": "Millinocket",
        "country": "United States",
        "iata": "MLT",
        "icao": "KMLT",
        "latitude": "45.647836",
        "longitude": "-68.685561",
        "altitude": "408",
        "timezone": "-5",
        "dst": "A",
        "tz": "America/New_York"
    },
    {
        "id": "3552",
        "name": "Andrews Afb",
        "city": "Camp Springs",
        "country": "United States",
        "iata": "ADW",
        "icao": "KADW",
        "latitude": "38.810806",
        "longitude": "-76.867028",
        "altitude": "280",
        "timezone": "-5",
        "dst": "A",
        "tz": "America/New_York"
    },
    {
        "id": "3553",
        "name": "Smith Reynolds",
        "city": "Winston-salem",
        "country": "United States",
        "iata": "INT",
        "icao": "KINT",
        "latitude": "36.133722",
        "longitude": "-80.222",
        "altitude": "969",
        "timezone": "-5",
        "dst": "A",
        "tz": "America/New_York"
    },
    {
        "id": "3554",
        "name": "Southern California Logistics",
        "city": "Victorville",
        "country": "United States",
        "iata": "VCV",
        "icao": "KVCV",
        "latitude": "34.597453",
        "longitude": "-117.382997",
        "altitude": "2885",
        "timezone": "-8",
        "dst": "A",
        "tz": "America/Los_Angeles"
    },
    {
        "id": "3555",
        "name": "Bob Sikes",
        "city": "Crestview",
        "country": "United States",
        "iata": "CEW",
        "icao": "KCEW",
        "latitude": "30.778833",
        "longitude": "-86.522111",
        "altitude": "213",
        "timezone": "-6",
        "dst": "A",
        "tz": "America/Chicago"
    },
    {
        "id": "3556",
        "name": "Wheeler Sack Aaf",
        "city": "Fort Drum",
        "country": "United States",
        "iata": "GTB",
        "icao": "KGTB",
        "latitude": "44.055619",
        "longitude": "-75.719458",
        "altitude": "690",
        "timezone": "-5",
        "dst": "A",
        "tz": "America/New_York"
    },
    {
        "id": "3557",
        "name": "St Clair Co Intl",
        "city": "Port Huron",
        "country": "United States",
        "iata": "PHN",
        "icao": "KPHN",
        "latitude": "42.910957",
        "longitude": "-82.528862",
        "altitude": "650",
        "timezone": "-5",
        "dst": "A",
        "tz": "America/New_York"
    },
    {
        "id": "3558",
        "name": "Meadows Fld",
        "city": "Bakersfield",
        "country": "United States",
        "iata": "BFL",
        "icao": "KBFL",
        "latitude": "35.433598",
        "longitude": "-119.05677",
        "altitude": "507",
        "timezone": "-8",
        "dst": "A",
        "tz": "America/Los_Angeles"
    },
    {
        "id": "3559",
        "name": "El Paso Intl",
        "city": "El Paso",
        "country": "United States",
        "iata": "ELP",
        "icao": "KELP",
        "latitude": "31.80725",
        "longitude": "-106.377583",
        "altitude": "3958",
        "timezone": "-7",
        "dst": "A",
        "tz": "America/Denver"
    },
    {
        "id": "3560",
        "name": "Valley Intl",
        "city": "Harlingen",
        "country": "United States",
        "iata": "HRL",
        "icao": "KHRL",
        "latitude": "26.2285",
        "longitude": "-97.654389",
        "altitude": "36",
        "timezone": "-6",
        "dst": "A",
        "tz": "America/Chicago"
    },
    {
        "id": "3561",
        "name": "Columbia Metropolitan",
        "city": "Columbia",
        "country": "United States",
        "iata": "CAE",
        "icao": "KCAE",
        "latitude": "33.938833",
        "longitude": "-81.119528",
        "altitude": "236",
        "timezone": "-5",
        "dst": "A",
        "tz": "America/New_York"
    },
    {
        "id": "3562",
        "name": "Davis Monthan Afb",
        "city": "Tucson",
        "country": "United States",
        "iata": "DMA",
        "icao": "KDMA",
        "latitude": "32.166467",
        "longitude": "-110.883144",
        "altitude": "2704",
        "timezone": "-7",
        "dst": "A",
        "tz": "America/Phoenix"
    },
    {
        "id": "3563",
        "name": "Pensacola Nas",
        "city": "Pensacola",
        "country": "United States",
        "iata": "NPA",
        "icao": "KNPA",
        "latitude": "30.352656",
        "longitude": "-87.318647",
        "altitude": "28",
        "timezone": "-6",
        "dst": "A",
        "tz": "America/Chicago"
    },
    {
        "id": "3564",
        "name": "Pensacola Rgnl",
        "city": "Pensacola",
        "country": "United States",
        "iata": "PNS",
        "icao": "KPNS",
        "latitude": "30.473425",
        "longitude": "-87.186611",
        "altitude": "121",
        "timezone": "-6",
        "dst": "A",
        "tz": "America/Chicago"
    },
    {
        "id": "3565",
        "name": "Grand Forks Afb",
        "city": "Red River",
        "country": "United States",
        "iata": "RDR",
        "icao": "KRDR",
        "latitude": "47.961098",
        "longitude": "-97.401194",
        "altitude": "913",
        "timezone": "-6",
        "dst": "A",
        "tz": "America/Chicago"
    },
    {
        "id": "3566",
        "name": "William P Hobby",
        "city": "Houston",
        "country": "United States",
        "iata": "HOU",
        "icao": "KHOU",
        "latitude": "29.645419",
        "longitude": "-95.278889",
        "altitude": "46",
        "timezone": "-6",
        "dst": "A",
        "tz": "America/Chicago"
    },
    {
        "id": "3567",
        "name": "Buckley Afb",
        "city": "Buckley",
        "country": "United States",
        "iata": "BKF",
        "icao": "KBKF",
        "latitude": "39.701668",
        "longitude": "-104.75166",
        "altitude": "5662",
        "timezone": "-7",
        "dst": "A",
        "tz": "America/Denver"
    },
    {
        "id": "3568",
        "name": "Northway",
        "city": "Northway",
        "country": "United States",
        "iata": "ORT",
        "icao": "PAOR",
        "latitude": "62.961334",
        "longitude": "-141.929136",
        "altitude": "1716",
        "timezone": "-9",
        "dst": "A",
        "tz": "America/Anchorage"
    },
    {
        "id": "3569",
        "name": "Palmer Muni",
        "city": "Palmer",
        "country": "United States",
        "iata": "PAQ",
        "icao": "PAAQ",
        "latitude": "61.594914",
        "longitude": "-149.088711",
        "altitude": "242",
        "timezone": "-9",
        "dst": "A",
        "tz": "America/Anchorage"
    },
    {
        "id": "3570",
        "name": "Pittsburgh Intl",
        "city": "Pittsburgh",
        "country": "United States",
        "iata": "PIT",
        "icao": "KPIT",
        "latitude": "40.491467",
        "longitude": "-80.232872",
        "altitude": "1204",
        "timezone": "-5",
        "dst": "A",
        "tz": "America/New_York"
    },
    {
        "id": "3571",
        "name": "Wiley Post Will Rogers Mem",
        "city": "Barrow",
        "country": "United States",
        "iata": "BRW",
        "icao": "PABR",
        "latitude": "71.285446",
        "longitude": "-156.766003",
        "altitude": "44",
        "timezone": "-9",
        "dst": "A",
        "tz": "America/Anchorage"
    },
    {
        "id": "3572",
        "name": "Ellington Fld",
        "city": "Houston",
        "country": "United States",
        "iata": "EFD",
        "icao": "KEFD",
        "latitude": "29.607333",
        "longitude": "-95.15875",
        "altitude": "32",
        "timezone": "-6",
        "dst": "A",
        "tz": "America/Chicago"
    },
    {
        "id": "3573",
        "name": "Whidbey Island Nas",
        "city": "Whidbey Island",
        "country": "United States",
        "iata": "NUW",
        "icao": "KNUW",
        "latitude": "48.351803",
        "longitude": "-122.655906",
        "altitude": "47",
        "timezone": "-8",
        "dst": "A",
        "tz": "America/Los_Angeles"
    },
    {
        "id": "3574",
        "name": "Alice Intl",
        "city": "Alice",
        "country": "United States",
        "iata": "ALI",
        "icao": "KALI",
        "latitude": "27.740889",
        "longitude": "-98.026944",
        "altitude": "178",
        "timezone": "-6",
        "dst": "A",
        "tz": "America/Chicago"
    },
    {
        "id": "3575",
        "name": "Moody Afb",
        "city": "Valdosta",
        "country": "United States",
        "iata": "VAD",
        "icao": "KVAD",
        "latitude": "30.967833",
        "longitude": "-83.193",
        "altitude": "233",
        "timezone": "-5",
        "dst": "A",
        "tz": "America/New_York"
    },
    {
        "id": "3576",
        "name": "Miami Intl",
        "city": "Miami",
        "country": "United States",
        "iata": "MIA",
        "icao": "KMIA",
        "latitude": "25.79325",
        "longitude": "-80.290556",
        "altitude": "8",
        "timezone": "-5",
        "dst": "A",
        "tz": "America/New_York"
    },
    {
        "id": "3577",
        "name": "Seattle Tacoma Intl",
        "city": "Seattle",
        "country": "United States",
        "iata": "SEA",
        "icao": "KSEA",
        "latitude": "47.449",
        "longitude": "-122.309306",
        "altitude": "433",
        "timezone": "-8",
        "dst": "A",
        "tz": "America/Los_Angeles"
    },
    {
        "id": "3578",
        "name": "Lovell Fld",
        "city": "Chattanooga",
        "country": "United States",
        "iata": "CHA",
        "icao": "KCHA",
        "latitude": "35.035278",
        "longitude": "-85.203808",
        "altitude": "683",
        "timezone": "-5",
        "dst": "A",
        "tz": "America/New_York"
    },
    {
        "id": "3579",
        "name": "Igor I Sikorsky Mem",
        "city": "Stratford",
        "country": "United States",
        "iata": "BDR",
        "icao": "KBDR",
        "latitude": "41.163472",
        "longitude": "-73.126167",
        "altitude": "9",
        "timezone": "-5",
        "dst": "A",
        "tz": "America/New_York"
    },
    {
        "id": "3580",
        "name": "Jackson Evers Intl",
        "city": "Jackson",
        "country": "United States",
        "iata": "JAN",
        "icao": "KJAN",
        "latitude": "32.311167",
        "longitude": "-90.075889",
        "altitude": "346",
        "timezone": "-6",
        "dst": "A",
        "tz": "America/Chicago"
    },
    {
        "id": "3581",
        "name": "Scholes Intl At Galveston",
        "city": "Galveston",
        "country": "United States",
        "iata": "GLS",
        "icao": "KGLS",
        "latitude": "29.265322",
        "longitude": "-94.860406",
        "altitude": "6",
        "timezone": "-6",
        "dst": "A",
        "tz": "America/Chicago"
    },
    {
        "id": "3582",
        "name": "Long Beach",
        "city": "Long Beach",
        "country": "United States",
        "iata": "LGB",
        "icao": "KLGB",
        "latitude": "33.817722",
        "longitude": "-118.151611",
        "altitude": "60",
        "timezone": "-8",
        "dst": "A",
        "tz": "America/Los_Angeles"
    },
    {
        "id": "3583",
        "name": "Dillingham",
        "city": "Dillingham",
        "country": "United States",
        "iata": "HDH",
        "icao": "PHDH",
        "latitude": "21.579475",
        "longitude": "-158.197281",
        "altitude": "14",
        "timezone": "-10",
        "dst": "A",
        "tz": "Pacific/Honolulu"
    },
    {
        "id": "3584",
        "name": "Williamsport Rgnl",
        "city": "Williamsport",
        "country": "United States",
        "iata": "IPT",
        "icao": "KIPT",
        "latitude": "41.241836",
        "longitude": "-76.921094",
        "altitude": "529",
        "timezone": "-5",
        "dst": "A",
        "tz": "America/New_York"
    },
    {
        "id": "3585",
        "name": "Indianapolis Intl",
        "city": "Indianapolis",
        "country": "United States",
        "iata": "IND",
        "icao": "KIND",
        "latitude": "39.717331",
        "longitude": "-86.294383",
        "altitude": "797",
        "timezone": "-5",
        "dst": "A",
        "tz": "America/New_York"
    },
    {
        "id": "3586",
        "name": "Whiteman Afb",
        "city": "Knobnoster",
        "country": "United States",
        "iata": "SZL",
        "icao": "KSZL",
        "latitude": "38.730306",
        "longitude": "-93.547864",
        "altitude": "870",
        "timezone": "-6",
        "dst": "A",
        "tz": "America/Chicago"
    },
    {
        "id": "3587",
        "name": "Akron Fulton Intl",
        "city": "Akron",
        "country": "United States",
        "iata": "AKC",
        "icao": "KAKR",
        "latitude": "41.0375",
        "longitude": "-81.466917",
        "altitude": "1067",
        "timezone": "-5",
        "dst": "A",
        "tz": "America/New_York"
    },
    {
        "id": "3588",
        "name": "Greenwood Leflore",
        "city": "Greenwood",
        "country": "United States",
        "iata": "GWO",
        "icao": "KGWO",
        "latitude": "33.494328",
        "longitude": "-90.084706",
        "altitude": "162",
        "timezone": "-6",
        "dst": "A",
        "tz": "America/Chicago"
    },
    {
        "id": "3589",
        "name": "Westchester Co",
        "city": "White Plains",
        "country": "United States",
        "iata": "HPN",
        "icao": "KHPN",
        "latitude": "41.066959",
        "longitude": "-73.707575",
        "altitude": "439",
        "timezone": "-5",
        "dst": "A",
        "tz": "America/New_York"
    },
    {
        "id": "3590",
        "name": "Francis S Gabreski",
        "city": "West Hampton Beach",
        "country": "United States",
        "iata": "FOK",
        "icao": "KFOK",
        "latitude": "40.843656",
        "longitude": "-72.631789",
        "altitude": "67",
        "timezone": "-5",
        "dst": "A",
        "tz": "America/New_York"
    },
    {
        "id": "3591",
        "name": "Jonesboro Muni",
        "city": "Jonesboro",
        "country": "United States",
        "iata": "JBR",
        "icao": "KJBR",
        "latitude": "35.831708",
        "longitude": "-90.646417",
        "altitude": "262",
        "timezone": "-6",
        "dst": "A",
        "tz": "America/Chicago"
    },
    {
        "id": "3592",
        "name": "Tonopah Test Range",
        "city": "Tonopah",
        "country": "United States",
        "iata": "TNX",
        "icao": "KTNX",
        "latitude": "37.798836",
        "longitude": "-116.78075",
        "altitude": "5549",
        "timezone": "-8",
        "dst": "A",
        "tz": "America/Los_Angeles"
    },
    {
        "id": "3593",
        "name": "Palm Beach Co Park",
        "city": "West Palm Beach",
        "country": "United States",
        "iata": "LNA",
        "icao": "KLNA",
        "latitude": "26.593",
        "longitude": "-80.085056",
        "altitude": "14",
        "timezone": "-5",
        "dst": "A",
        "tz": "America/New_York"
    },
    {
        "id": "3594",
        "name": "North Island Nas",
        "city": "San Diego",
        "country": "United States",
        "iata": "NZY",
        "icao": "KNZY",
        "latitude": "32.699219",
        "longitude": "-117.21531",
        "altitude": "26",
        "timezone": "-8",
        "dst": "A",
        "tz": "America/Los_Angeles"
    },
    {
        "id": "3595",
        "name": "Biggs Aaf",
        "city": "El Paso",
        "country": "United States",
        "iata": "BIF",
        "icao": "KBIF",
        "latitude": "31.849528",
        "longitude": "-106.380039",
        "altitude": "3948",
        "timezone": "-7",
        "dst": "A",
        "tz": "America/Denver"
    },
    {
        "id": "3596",
        "name": "Yuma Mcas Yuma Intl",
        "city": "Yuma",
        "country": "United States",
        "iata": "YUM",
        "icao": "KYUM",
        "latitude": "32.656578",
        "longitude": "-114.60598",
        "altitude": "216",
        "timezone": "-7",
        "dst": "N",
        "tz": "America/Phoenix"
    },
    {
        "id": "3597",
        "name": "Cavern City Air Terminal",
        "city": "Carlsbad",
        "country": "United States",
        "iata": "CNM",
        "icao": "KCNM",
        "latitude": "32.337472",
        "longitude": "-104.263278",
        "altitude": "3295",
        "timezone": "-7",
        "dst": "A",
        "tz": "America/Denver"
    },
    {
        "id": "3598",
        "name": "Duluth Intl",
        "city": "Duluth",
        "country": "United States",
        "iata": "DLH",
        "icao": "KDLH",
        "latitude": "46.842091",
        "longitude": "-92.193649",
        "altitude": "1428",
        "timezone": "-6",
        "dst": "A",
        "tz": "America/Chicago"
    },
    {
        "id": "3599",
        "name": "Bethel",
        "city": "Bethel",
        "country": "United States",
        "iata": "BET",
        "icao": "PABE",
        "latitude": "60.779778",
        "longitude": "-161.838",
        "altitude": "121",
        "timezone": "-9",
        "dst": "A",
        "tz": "America/Anchorage"
    },
    {
        "id": "3600",
        "name": "Bowman Fld",
        "city": "Louisville",
        "country": "United States",
        "iata": "LOU",
        "icao": "KLOU",
        "latitude": "38.228",
        "longitude": "-85.663722",
        "altitude": "546",
        "timezone": "-5",
        "dst": "A",
        "tz": "America/New_York"
    },
    {
        "id": "3601",
        "name": "Sierra Vista Muni Libby Aaf",
        "city": "Fort Huachuca",
        "country": "United States",
        "iata": "FHU",
        "icao": "KFHU",
        "latitude": "31.588472",
        "longitude": "-110.344389",
        "altitude": "4719",
        "timezone": "-7",
        "dst": "A",
        "tz": "America/Phoenix"
    },
    {
        "id": "3602",
        "name": "Lihue",
        "city": "Lihue",
        "country": "United States",
        "iata": "LIH",
        "icao": "PHLI",
        "latitude": "21.975983",
        "longitude": "-159.338958",
        "altitude": "153",
        "timezone": "-10",
        "dst": "N",
        "tz": "Pacific/Honolulu"
    },
    {
        "id": "3603",
        "name": "Terre Haute Intl Hulman Fld",
        "city": "Terre Haute",
        "country": "United States",
        "iata": "HUF",
        "icao": "KHUF",
        "latitude": "39.451464",
        "longitude": "-87.307561",
        "altitude": "589",
        "timezone": "-5",
        "dst": "A",
        "tz": "America/New_York"
    },
    {
        "id": "3604",
        "name": "Havre City Co",
        "city": "Havre",
        "country": "United States",
        "iata": "HVR",
        "icao": "KHVR",
        "latitude": "48.542983",
        "longitude": "-109.762342",
        "altitude": "2590",
        "timezone": "-7",
        "dst": "A",
        "tz": "America/Denver"
    },
    {
        "id": "3605",
        "name": "Grant Co Intl",
        "city": "Grant County Airport",
        "country": "United States",
        "iata": "MWH",
        "icao": "KMWH",
        "latitude": "47.207708",
        "longitude": "-119.32019",
        "altitude": "1185",
        "timezone": "-8",
        "dst": "A",
        "tz": "America/Los_Angeles"
    },
    {
        "id": "3606",
        "name": "Edward F Knapp State",
        "city": "Montpelier",
        "country": "United States",
        "iata": "MPV",
        "icao": "KMPV",
        "latitude": "44.203503",
        "longitude": "-72.562328",
        "altitude": "1165",
        "timezone": "-5",
        "dst": "A",
        "tz": "America/New_York"
    },
    {
        "id": "3607",
        "name": "San Nicolas Island Nolf",
        "city": "San Nicolas Island",
        "country": "United States",
        "iata": "",
        "icao": "KNSI",
        "latitude": "33.239765",
        "longitude": "-119.45816",
        "altitude": "506",
        "timezone": "-8",
        "dst": "A",
        "tz": "America/Los_Angeles"
    },
    {
        "id": "3608",
        "name": "Richmond Intl",
        "city": "Richmond",
        "country": "United States",
        "iata": "RIC",
        "icao": "KRIC",
        "latitude": "37.505167",
        "longitude": "-77.319667",
        "altitude": "167",
        "timezone": "-5",
        "dst": "A",
        "tz": "America/New_York"
    },
    {
        "id": "3609",
        "name": "Shreveport Rgnl",
        "city": "Shreveport",
        "country": "United States",
        "iata": "SHV",
        "icao": "KSHV",
        "latitude": "32.446629",
        "longitude": "-93.8256",
        "altitude": "258",
        "timezone": "-6",
        "dst": "A",
        "tz": "America/Chicago"
    },
    {
        "id": "3610",
        "name": "Merle K Mudhole Smith",
        "city": "Cordova",
        "country": "United States",
        "iata": "CDV",
        "icao": "PACV",
        "latitude": "60.491778",
        "longitude": "-145.477556",
        "altitude": "48",
        "timezone": "-9",
        "dst": "A",
        "tz": "America/Anchorage"
    },
    {
        "id": "3611",
        "name": "Norfolk Intl",
        "city": "Norfolk",
        "country": "United States",
        "iata": "ORF",
        "icao": "KORF",
        "latitude": "36.894611",
        "longitude": "-76.201222",
        "altitude": "26",
        "timezone": "-5",
        "dst": "A",
        "tz": "America/New_York"
    },
    {
        "id": "3612",
        "name": "Southeast Texas Rgnl",
        "city": "Beaumont",
        "country": "United States",
        "iata": "BPT",
        "icao": "KBPT",
        "latitude": "29.950833",
        "longitude": "-94.020694",
        "altitude": "15",
        "timezone": "-6",
        "dst": "A",
        "tz": "America/Chicago"
    },
    {
        "id": "3613",
        "name": "Savannah Hilton Head Intl",
        "city": "Savannah",
        "country": "United States",
        "iata": "SAV",
        "icao": "KSAV",
        "latitude": "32.127583",
        "longitude": "-81.202139",
        "altitude": "51",
        "timezone": "-5",
        "dst": "A",
        "tz": "America/New_York"
    },
    {
        "id": "3614",
        "name": "Hill Afb",
        "city": "Ogden",
        "country": "United States",
        "iata": "HIF",
        "icao": "KHIF",
        "latitude": "41.123939",
        "longitude": "-111.973039",
        "altitude": "4789",
        "timezone": "-7",
        "dst": "A",
        "tz": "America/Denver"
    },
    {
        "id": "3615",
        "name": "Nome",
        "city": "Nome",
        "country": "United States",
        "iata": "OME",
        "icao": "PAOM",
        "latitude": "64.512203",
        "longitude": "-165.445247",
        "altitude": "37",
        "timezone": "-9",
        "dst": "A",
        "tz": "America/Anchorage"
    },
    {
        "id": "3616",
        "name": "Scappoose Industrial Airpark",
        "city": "San Luis",
        "country": "United States",
        "iata": "SPB",
        "icao": "KSPB",
        "latitude": "45.771028",
        "longitude": "-122.861833",
        "altitude": "58",
        "timezone": "-8",
        "dst": "A",
        "tz": "America/Los_Angeles"
    },
    {
        "id": "3617",
        "name": "St Petersburg Clearwater Intl",
        "city": "St. Petersburg",
        "country": "United States",
        "iata": "PIE",
        "icao": "KPIE",
        "latitude": "27.910167",
        "longitude": "-82.687389",
        "altitude": "10",
        "timezone": "-5",
        "dst": "A",
        "tz": "America/New_York"
    },
    {
        "id": "3618",
        "name": "Menominee Marinette Twin Co",
        "city": "Macon",
        "country": "United States",
        "iata": "MNM",
        "icao": "KMNM",
        "latitude": "45.12665",
        "longitude": "-87.638443",
        "altitude": "625",
        "timezone": "-6",
        "dst": "A",
        "tz": "America/Chicago"
    },
    {
        "id": "3619",
        "name": "Lone Star Executive",
        "city": "Conroe",
        "country": "United States",
        "iata": "CXO",
        "icao": "KCXO",
        "latitude": "30.351833",
        "longitude": "-95.414467",
        "altitude": "245",
        "timezone": "-6",
        "dst": "A",
        "tz": "America/Chicago"
    },
    {
        "id": "3620",
        "name": "Deadhorse",
        "city": "Deadhorse",
        "country": "United States",
        "iata": "SCC",
        "icao": "PASC",
        "latitude": "70.19475",
        "longitude": "-148.465167",
        "altitude": "64",
        "timezone": "-9",
        "dst": "A",
        "tz": "America/Anchorage"
    },
    {
        "id": "3621",
        "name": "San Antonio Intl",
        "city": "San Antonio",
        "country": "United States",
        "iata": "SAT",
        "icao": "KSAT",
        "latitude": "29.533694",
        "longitude": "-98.469778",
        "altitude": "809",
        "timezone": "-6",
        "dst": "A",
        "tz": "America/Chicago"
    },
    {
        "id": "3622",
        "name": "Greater Rochester Intl",
        "city": "Rochester",
        "country": "United States",
        "iata": "ROC",
        "icao": "KROC",
        "latitude": "43.118866",
        "longitude": "-77.672389",
        "altitude": "559",
        "timezone": "-5",
        "dst": "A",
        "tz": "America/New_York"
    },
    {
        "id": "3623",
        "name": "Patrick Afb",
        "city": "Coco Beach",
        "country": "United States",
        "iata": "COF",
        "icao": "KCOF",
        "latitude": "28.234922",
        "longitude": "-80.610125",
        "altitude": "8",
        "timezone": "-5",
        "dst": "A",
        "tz": "America/New_York"
    },
    {
        "id": "3624",
        "name": "Teterboro",
        "city": "Teterboro",
        "country": "United States",
        "iata": "TEB",
        "icao": "KTEB",
        "latitude": "40.850103",
        "longitude": "-74.060837",
        "altitude": "9",
        "timezone": "-5",
        "dst": "A",
        "tz": "America/New_York"
    },
    {
        "id": "3625",
        "name": "Ellsworth Afb",
        "city": "Rapid City",
        "country": "United States",
        "iata": "RCA",
        "icao": "KRCA",
        "latitude": "44.145042",
        "longitude": "-103.103567",
        "altitude": "3279",
        "timezone": "-7",
        "dst": "A",
        "tz": "America/Denver"
    },
    {
        "id": "3626",
        "name": "Raleigh Durham Intl",
        "city": "Raleigh-durham",
        "country": "United States",
        "iata": "RDU",
        "icao": "KRDU",
        "latitude": "35.877639",
        "longitude": "-78.787472",
        "altitude": "435",
        "timezone": "-5",
        "dst": "A",
        "tz": "America/New_York"
    },
    {
        "id": "3627",
        "name": "James M Cox Dayton Intl",
        "city": "Dayton",
        "country": "United States",
        "iata": "DAY",
        "icao": "KDAY",
        "latitude": "39.902375",
        "longitude": "-84.219375",
        "altitude": "1009",
        "timezone": "-5",
        "dst": "A",
        "tz": "America/New_York"
    },
    {
        "id": "3628",
        "name": "Kenai Muni",
        "city": "Kenai",
        "country": "United States",
        "iata": "ENA",
        "icao": "PAEN",
        "latitude": "60.573111",
        "longitude": "-151.245",
        "altitude": "99",
        "timezone": "-9",
        "dst": "A",
        "tz": "America/Anchorage"
    },
    {
        "id": "3629",
        "name": "Mc Alester Rgnl",
        "city": "Mcalester",
        "country": "United States",
        "iata": "MLC",
        "icao": "KMLC",
        "latitude": "34.882403",
        "longitude": "-95.783463",
        "altitude": "770",
        "timezone": "-6",
        "dst": "A",
        "tz": "America/Chicago"
    },
    {
        "id": "3630",
        "name": "Niagara Falls Intl",
        "city": "Niagara Falls",
        "country": "United States",
        "iata": "IAG",
        "icao": "KIAG",
        "latitude": "43.107333",
        "longitude": "-78.946194",
        "altitude": "589",
        "timezone": "-5",
        "dst": "A",
        "tz": "America/New_York"
    },
    {
        "id": "3631",
        "name": "Coulter Fld",
        "city": "Bryan",
        "country": "United States",
        "iata": "CFD",
        "icao": "KCFD",
        "latitude": "30.715694",
        "longitude": "-96.331361",
        "altitude": "367",
        "timezone": "-6",
        "dst": "A",
        "tz": "America/Chicago"
    },
    {
        "id": "3632",
        "name": "Wright Aaf",
        "city": "Wright",
        "country": "United States",
        "iata": "",
        "icao": "KLHW",
        "latitude": "31.889097",
        "longitude": "-81.562333",
        "altitude": "45",
        "timezone": "-5",
        "dst": "A",
        "tz": "America/New_York"
    },
    {
        "id": "3633",
        "name": "Newport News Williamsburg Intl",
        "city": "Newport News",
        "country": "United States",
        "iata": "PHF",
        "icao": "KPHF",
        "latitude": "37.131894",
        "longitude": "-76.492989",
        "altitude": "43",
        "timezone": "-5",
        "dst": "A",
        "tz": "America/New_York"
    },
    {
        "id": "3634",
        "name": "Esler Rgnl",
        "city": "Alexandria",
        "country": "United States",
        "iata": "ESF",
        "icao": "KESF",
        "latitude": "31.394903",
        "longitude": "-92.295772",
        "altitude": "112",
        "timezone": "-6",
        "dst": "A",
        "tz": "America/Chicago"
    },
    {
        "id": "3635",
        "name": "Altus Afb",
        "city": "Altus",
        "country": "United States",
        "iata": "LTS",
        "icao": "KLTS",
        "latitude": "34.667067",
        "longitude": "-99.266681",
        "altitude": "1382",
        "timezone": "-6",
        "dst": "A",
        "tz": "America/Chicago"
    },
    {
        "id": "3636",
        "name": "Tucson Intl",
        "city": "Tucson",
        "country": "United States",
        "iata": "TUS",
        "icao": "KTUS",
        "latitude": "32.116083",
        "longitude": "-110.941028",
        "altitude": "2643",
        "timezone": "-7",
        "dst": "N",
        "tz": "America/Phoenix"
    },
    {
        "id": "3637",
        "name": "Minot Afb",
        "city": "Minot",
        "country": "United States",
        "iata": "MIB",
        "icao": "KMIB",
        "latitude": "48.415572",
        "longitude": "-101.357661",
        "altitude": "1668",
        "timezone": "-6",
        "dst": "A",
        "tz": "America/Chicago"
    },
    {
        "id": "3638",
        "name": "Beale Afb",
        "city": "Marysville",
        "country": "United States",
        "iata": "BAB",
        "icao": "KBAB",
        "latitude": "39.136089",
        "longitude": "-121.436567",
        "altitude": "113",
        "timezone": "-8",
        "dst": "A",
        "tz": "America/Los_Angeles"
    },
    {
        "id": "3639",
        "name": "Greater Kankakee",
        "city": "Kankakee",
        "country": "United States",
        "iata": "IKK",
        "icao": "KIKK",
        "latitude": "41.071389",
        "longitude": "-87.846278",
        "altitude": "630",
        "timezone": "-6",
        "dst": "A",
        "tz": "America/Chicago"
    },
    {
        "id": "3640",
        "name": "Seymour Johnson Afb",
        "city": "Goldsboro",
        "country": "United States",
        "iata": "GSB",
        "icao": "KGSB",
        "latitude": "35.339383",
        "longitude": "-77.960589",
        "altitude": "110",
        "timezone": "-5",
        "dst": "A",
        "tz": "America/New_York"
    },
    {
        "id": "3641",
        "name": "Theodore Francis Green State",
        "city": "Providence",
        "country": "United States",
        "iata": "PVD",
        "icao": "KPVD",
        "latitude": "41.732581",
        "longitude": "-71.420383",
        "altitude": "55",
        "timezone": "-5",
        "dst": "A",
        "tz": "America/New_York"
    },
    {
        "id": "3642",
        "name": "Salisbury Ocean City Wicomico Rgnl",
        "city": "Salisbury",
        "country": "United States",
        "iata": "SBY",
        "icao": "KSBY",
        "latitude": "38.340525",
        "longitude": "-75.510289",
        "altitude": "52",
        "timezone": "-5",
        "dst": "A",
        "tz": "America/New_York"
    },
    {
        "id": "3643",
        "name": "Rancho Murieta",
        "city": "Rancho Murieta",
        "country": "United States",
        "iata": "RIU",
        "icao": "KRIU",
        "latitude": "38.486778",
        "longitude": "-121.102778",
        "altitude": "141",
        "timezone": "-8",
        "dst": "A",
        "tz": "America/Los_Angeles"
    },
    {
        "id": "3644",
        "name": "Bob Hope",
        "city": "Burbank",
        "country": "United States",
        "iata": "BUR",
        "icao": "KBUR",
        "latitude": "34.200667",
        "longitude": "-118.358667",
        "altitude": "778",
        "timezone": "-8",
        "dst": "A",
        "tz": "America/Los_Angeles"
    },
    {
        "id": "3645",
        "name": "Detroit Metro Wayne Co",
        "city": "Detroit",
        "country": "United States",
        "iata": "DTW",
        "icao": "KDTW",
        "latitude": "42.212444",
        "longitude": "-83.353389",
        "altitude": "645",
        "timezone": "-5",
        "dst": "A",
        "tz": "America/New_York"
    },
    {
        "id": "3646",
        "name": "Tampa Intl",
        "city": "Tampa",
        "country": "United States",
        "iata": "TPA",
        "icao": "KTPA",
        "latitude": "27.975472",
        "longitude": "-82.53325",
        "altitude": "26",
        "timezone": "-5",
        "dst": "A",
        "tz": "America/New_York"
    },
    {
        "id": "3647",
        "name": "Pembina Muni",
        "city": "Pembina",
        "country": "United States",
        "iata": "PMB",
        "icao": "KPMB",
        "latitude": "48.942501",
        "longitude": "-97.240833",
        "altitude": "795",
        "timezone": "-6",
        "dst": "A",
        "tz": "America/Chicago"
    },
    {
        "id": "3648",
        "name": "Polk Aaf",
        "city": "Fort Polk",
        "country": "United States",
        "iata": "POE",
        "icao": "KPOE",
        "latitude": "31.044833",
        "longitude": "-93.191667",
        "altitude": "330",
        "timezone": "-6",
        "dst": "A",
        "tz": "America/Chicago"
    },
    {
        "id": "3649",
        "name": "Eielson Afb",
        "city": "Fairbanks",
        "country": "United States",
        "iata": "EIL",
        "icao": "PAEI",
        "latitude": "64.665667",
        "longitude": "-147.1015",
        "altitude": "548",
        "timezone": "-9",
        "dst": "A",
        "tz": "America/Anchorage"
    },
    {
        "id": "3650",
        "name": "Chisholm Hibbing",
        "city": "Hibbing",
        "country": "United States",
        "iata": "HIB",
        "icao": "KHIB",
        "latitude": "47.3866",
        "longitude": "-92.838994",
        "altitude": "1353",
        "timezone": "-6",
        "dst": "A",
        "tz": "America/Chicago"
    },
    {
        "id": "3651",
        "name": "Angelina Co",
        "city": "Lufkin",
        "country": "United States",
        "iata": "LFK",
        "icao": "KLFK",
        "latitude": "31.234014",
        "longitude": "-94.75",
        "altitude": "296",
        "timezone": "-6",
        "dst": "A",
        "tz": "America/Chicago"
    },
    {
        "id": "3652",
        "name": "Midland Intl",
        "city": "Midland",
        "country": "United States",
        "iata": "MAF",
        "icao": "KMAF",
        "latitude": "31.942528",
        "longitude": "-102.201914",
        "altitude": "2871",
        "timezone": "-6",
        "dst": "A",
        "tz": "America/Chicago"
    },
    {
        "id": "3653",
        "name": "Austin Straubel Intl",
        "city": "Green Bay",
        "country": "United States",
        "iata": "GRB",
        "icao": "KGRB",
        "latitude": "44.485072",
        "longitude": "-88.129589",
        "altitude": "695",
        "timezone": "-6",
        "dst": "A",
        "tz": "America/Chicago"
    },